{
"type": "FeatureCollection",
"name": "rec-symbols-855",
"crs": { "type": "name", "properties": { "name": "urn:ogc:def:crs:OGC:1.3:CRS84" } },
"features": [
{ "type": "Feature", "properties": { "Type": "Campground", "Name": "Aspen (USFS)" }, "geometry": { "type": "Point", "coordinates": [ -106.033782399908, 40.516677840639 ] } },
{ "type": "Feature", "properties": { "Type": "Campground", "Name": "Pines (USFS)" }, "geometry": { "type": "Point", "coordinates": [ -106.006233706494, 40.493779740383 ] } },
{ "type": "Feature", "properties": { "Type": "Ranger", "Name": "Moose Visitors Center" }, "geometry": { "type": "Point", "coordinates": [ -106.010360113274, 40.511224257226 ] } },
{ "type": "Feature", "properties": { "Type": "Campground", "Name": "Ranger Lakes" }, "geometry": { "type": "Point", "coordinates": [ -105.971102118983, 40.502826545251 ] } },
{ "type": "Feature", "properties": { "Type": "Trailhead", "Name": "Forest Service Access" }, "geometry": { "type": "Point", "coordinates": [ -105.967562869775, 40.488964940799 ] } },
{ "type": "Feature", "properties": { "Type": "Trailhead", "Name": "Agnes Creek" }, "geometry": { "type": "Point", "coordinates": [ -105.903396658405, 40.489875875324 ] } },
{ "type": "Feature", "properties": { "Type": "Campground", "Name": "Crags" }, "geometry": { "type": "Point", "coordinates": [ -105.890221196338, 40.501977218943 ] } },
{ "type": "Feature", "properties": { "Type": "Trailhead", "Name": "American Lakes" }, "geometry": { "type": "Point", "coordinates": [ -105.884061240046, 40.504579250303 ] } },
{ "type": "Feature", "properties": { "Type": "Parking", "Name": "Crags" }, "geometry": { "type": "Point", "coordinates": [ -105.89790982583, 40.503668515389 ] } },
{ "type": "Feature", "properties": { "Type": "Ranger", "Name": "Ranger Lakes Entrance" }, "geometry": { "type": "Point", "coordinates": [ -105.990470742834, 40.504899992801 ] } },
{ "type": "Feature", "properties": { "Type": "Parking", "Name": "Ranger Lakes" }, "geometry": { "type": "Point", "coordinates": [ -105.982147999788, 40.503907158829 ] } },
{ "type": "Feature", "properties": { "Type": "Trailhead", "Name": "Crags" }, "geometry": { "type": "Point", "coordinates": [ -105.902712218817, 40.500676013607 ] } },
{ "type": "Feature", "properties": { "Type": "Building", "Name": "Bockman Entrance" }, "geometry": { "type": "Point", "coordinates": [ -105.92529872522, 40.50522976767 ] } },
{ "type": "Feature", "properties": { "Type": "Trailhead", "Name": "Michigan Ditch" }, "geometry": { "type": "Point", "coordinates": [ -105.889646248804, 40.518895746663 ] } },
{ "type": "Feature", "properties": { "Type": "Parking", "Name": "Michigan Ditch" }, "geometry": { "type": "Point", "coordinates": [ -105.89496307387, 40.522256589078 ] } },
{ "type": "Feature", "properties": { "Type": "Trailhead", "Name": "Montgomery Pass" }, "geometry": { "type": "Point", "coordinates": [ -105.886222078075, 40.540770088524 ] } },
{ "type": "Feature", "properties": { "Type": "Parking", "Name": "Montgomery Pass" }, "geometry": { "type": "Point", "coordinates": [ -105.88167434339, 40.536952186911 ] } },
{ "type": "Feature", "properties": { "Type": "Trailhead", "Name": "Long Draw (USFS)" }, "geometry": { "type": "Point", "coordinates": [ -105.855314777352, 40.578177744683 ] } },
{ "type": "Feature", "properties": { "Type": "Campground", "Name": "Chamber Lakes" }, "geometry": { "type": "Point", "coordinates": [ -105.847614831988, 40.594420926874 ] } },
{ "type": "Feature", "properties": { "Type": "Trailhead", "Name": "Montgomery Pass" }, "geometry": { "type": "Point", "coordinates": [ -105.910319066812, 40.55125015152 ] } },
{ "type": "Feature", "properties": { "Type": "Campground", "Name": "Bockman" }, "geometry": { "type": "Point", "coordinates": [ -105.96328512235, 40.560890667273 ] } },
{ "type": "Feature", "properties": { "Type": "Campground", "Name": "North Michigan" }, "geometry": { "type": "Point", "coordinates": [ -106.005207047112, 40.551660399237 ] } },
{ "type": "Feature", "properties": { "Type": "Ranger", "Name": "North Michigan Entrance" }, "geometry": { "type": "Point", "coordinates": [ -106.0399946648, 40.554186504565 ] } },
{ "type": "Feature", "properties": { "Type": "Parking", "Name": "North Michigan" }, "geometry": { "type": "Point", "coordinates": [ -106.033192821209, 40.556176336067 ] } },
{ "type": "Feature", "properties": { "Type": "Parking", "Name": "Beaver Lodge" }, "geometry": { "type": "Point", "coordinates": [ -106.015055172128, 40.552944348565 ] } },
{ "type": "Feature", "properties": { "Type": "Campground", "Name": "Beaver Lodge" }, "geometry": { "type": "Point", "coordinates": [ -106.021120267531, 40.551400373259 ] } },
{ "type": "Feature", "properties": { "Type": "Parking", "Name": "Cabin (Winter Only)" }, "geometry": { "type": "Point", "coordinates": [ -105.991518255353, 40.556600700971 ] } },
{ "type": "Feature", "properties": { "Type": "Overlook", "Name": "Francisco Loop" }, "geometry": { "type": "Point", "coordinates": [ -105.981593881328, 40.584805439441 ] } },
{ "type": "Feature", "properties": { "Type": "Trailhead", "Name": "Custer Draw" }, "geometry": { "type": "Point", "coordinates": [ -106.028139742391, 40.582487971746 ] } },
{ "type": "Feature", "properties": { "Type": "Trailhead", "Name": "Ruby Jewel" }, "geometry": { "type": "Point", "coordinates": [ -105.953018528531, 40.58727441273 ] } },
{ "type": "Feature", "properties": { "Type": "Overlook", "Name": "Moose" }, "geometry": { "type": "Point", "coordinates": [ -106.005035937215, 40.595200500394 ] } },
{ "type": "Feature", "properties": { "Type": "Trailhead", "Name": "Northfork" }, "geometry": { "type": "Point", "coordinates": [ -106.01820164297, 40.616788651675 ] } },
{ "type": "Feature", "properties": { "Type": "Parking", "Name": "Northfork" }, "geometry": { "type": "Point", "coordinates": [ -106.026270412802, 40.611361469384 ] } },
{ "type": "Feature", "properties": { "Type": "Campground", "Name": "Northfork" }, "geometry": { "type": "Point", "coordinates": [ -106.025067314993, 40.616319573175 ] } },
{ "type": "Feature", "properties": { "Type": "Trailhead", "Name": "Jack Dickens" }, "geometry": { "type": "Point", "coordinates": [ -106.027793553514, 40.715146314566 ] } },
{ "type": "Feature", "properties": { "Type": "Parking", "Name": "East Dunes" }, "geometry": { "type": "Point", "coordinates": [ -106.152703009923, 40.836018242249 ] } },
{ "type": "Feature", "properties": { "Type": "Trailhead", "Name": "Medicine Bow" }, "geometry": { "type": "Point", "coordinates": [ -106.129680466474, 40.87706363073 ] } },
{ "type": "Feature", "properties": { "Type": "Parking", "Name": "Medicine Bow" }, "geometry": { "type": "Point", "coordinates": [ -106.131892649686, 40.871455575645 ] } },
{ "type": "Feature", "properties": { "Type": "Restroom", "Name": "N. Sand Dunes" }, "geometry": { "type": "Point", "coordinates": [ -106.220035522777, 40.881595463422 ] } },
{ "type": "Feature", "properties": { "Type": "Restroom", "Name": "N. Sand Dunes" }, "geometry": { "type": "Point", "coordinates": [ -106.208913379473, 40.877196737617 ] } },
{ "type": "Feature", "properties": { "Type": "Restroom", "Name": "N. Sand Dunes" }, "geometry": { "type": "Point", "coordinates": [ -106.201555653903, 40.870339317359 ] } }
]
}
